{
"type": "FeatureCollection",
"name": "Kategori:Universitet och högskolor i Sverige",
"crs": { "type": "name", "properties": { "name": "urn:ogc:def:crs:OGC:1.3:CRS84" } },
"features": [
{ "type": "Feature", "properties": { "Name": "Akademi för ledarskap och teologi", "description": "<br>Source: Wikipedia article <a href=\"https:\/\/sv.wikipedia.org\/wiki\/Akademi_för_ledarskap_och_teologi\">Akademi för ledarskap och teologi<\/a>" }, "geometry": { "type": "Point", "coordinates": [ 14.1626638888889, 57.783761111111097 ] } },
{ "type": "Feature", "properties": { "Name": "Blekinge tekniska högskola", "description": "<br>Source: Wikipedia article <a href=\"https:\/\/sv.wikipedia.org\/wiki\/Blekinge_tekniska_högskola\">Blekinge tekniska högskola<\/a>" }, "geometry": { "type": "Point", "coordinates": [ 15.5907583333333, 56.182241666666698 ] } },
{ "type": "Feature", "properties": { "Name": "Enskilda högskolan Stockholm", "description": "<br>Source: Wikipedia article <a href=\"https:\/\/sv.wikipedia.org\/wiki\/Enskilda_högskolan_Stockholm\">Enskilda högskolan Stockholm<\/a>" }, "geometry": { "type": "Point", "coordinates": [ 17.926908333333301, 59.336044444444397 ] } },
{ "type": "Feature", "properties": { "Name": "Ericastiftelsen", "description": "<br>Source: Wikipedia article <a href=\"https:\/\/sv.wikipedia.org\/wiki\/Ericastiftelsen\">Ericastiftelsen<\/a>" }, "geometry": { "type": "Point", "coordinates": [ 18.0659, 59.3464305555556 ] } },
{ "type": "Feature", "properties": { "Name": "Ersta Sköndal Bräcke högskola", "description": "<br>Source: Wikipedia article <a href=\"https:\/\/sv.wikipedia.org\/wiki\/Ersta_Sköndal_Bräcke_högskola\">Ersta Sköndal Bräcke högskola<\/a>" }, "geometry": { "type": "Point", "coordinates": [ 18.086425, 59.316555555555603 ] } },
{ "type": "Feature", "properties": { "Name": "Försvarshögskolan, Sverige", "description": "<br>Source: Wikipedia article <a href=\"https:\/\/sv.wikipedia.org\/wiki\/Försvarshögskolan,_Sverige\">Försvarshögskolan, Sverige<\/a>" }, "geometry": { "type": "Point", "coordinates": [ 18.069305555555601, 59.349027777777799 ] } },
{ "type": "Feature", "properties": { "Name": "Gammelkroppa skogsskola", "description": "<br>Source: Wikipedia article <a href=\"https:\/\/sv.wikipedia.org\/wiki\/Gammelkroppa_skogsskola\">Gammelkroppa skogsskola<\/a>" }, "geometry": { "type": "Point", "coordinates": [ 14.3099611111111, 59.684127777777803 ] } },
{ "type": "Feature", "properties": { "Name": "Gymnastik- och idrottshögskolan", "description": "<br>Source: Wikipedia article <a href=\"https:\/\/sv.wikipedia.org\/wiki\/Gymnastik-_och_idrottshögskolan\">Gymnastik- och idrottshögskolan<\/a>" }, "geometry": { "type": "Point", "coordinates": [ 18.08, 59.3472222222222 ] } },
{ "type": "Feature", "properties": { "Name": "Göteborgs universitet", "description": "<br>Source: Wikipedia article <a href=\"https:\/\/sv.wikipedia.org\/wiki\/Göteborgs_universitet\">Göteborgs universitet<\/a>" }, "geometry": { "type": "Point", "coordinates": [ 11.9716666666667, 57.698333333333302 ] } },
{ "type": "Feature", "properties": { "Name": "Handelshögskolan i Stockholm", "description": "<br>Source: Wikipedia article <a href=\"https:\/\/sv.wikipedia.org\/wiki\/Handelshögskolan_i_Stockholm\">Handelshögskolan i Stockholm<\/a>" }, "geometry": { "type": "Point", "coordinates": [ 18.056944444444401, 59.341666666666697 ] } },
{ "type": "Feature", "properties": { "Name": "Högskolan Kristianstad", "description": "<br>Source: Wikipedia article <a href=\"https:\/\/sv.wikipedia.org\/wiki\/Högskolan_Kristianstad\">Högskolan Kristianstad<\/a>" }, "geometry": { "type": "Point", "coordinates": [ 14.1462638888889, 56.048341666666701 ] } },
{ "type": "Feature", "properties": { "Name": "Högskolan Väst", "description": "<br>Source: Wikipedia article <a href=\"https:\/\/sv.wikipedia.org\/wiki\/Högskolan_Väst\">Högskolan Väst<\/a>" }, "geometry": { "type": "Point", "coordinates": [ 12.2931, 58.2825611111111 ] } },
{ "type": "Feature", "properties": { "Name": "Högskolan i Halmstad", "description": "<br>Source: Wikipedia article <a href=\"https:\/\/sv.wikipedia.org\/wiki\/Högskolan_i_Halmstad\">Högskolan i Halmstad<\/a>" }, "geometry": { "type": "Point", "coordinates": [ 12.8788305555556, 56.664622222222199 ] } },
{ "type": "Feature", "properties": { "Name": "Högskolan i Skövde", "description": "<br>Source: Wikipedia article <a href=\"https:\/\/sv.wikipedia.org\/wiki\/Högskolan_i_Skövde\">Högskolan i Skövde<\/a>" }, "geometry": { "type": "Point", "coordinates": [ 13.855, 58.394444444444403 ] } },
{ "type": "Feature", "properties": { "Name": "Högskolecentrum Bohuslän", "description": "<br>Source: Wikipedia article <a href=\"https:\/\/sv.wikipedia.org\/wiki\/Högskolecentrum_Bohuslän\">Högskolecentrum Bohuslän<\/a>" }, "geometry": { "type": "Point", "coordinates": [ 11.9436416666667, 58.349427777777798 ] } },
{ "type": "Feature", "properties": { "Name": "Johannelunds teologiska högskola", "description": "<br>Source: Wikipedia article <a href=\"https:\/\/sv.wikipedia.org\/wiki\/Johannelunds_teologiska_högskola\">Johannelunds teologiska högskola<\/a>" }, "geometry": { "type": "Point", "coordinates": [ 17.6474638888889, 59.878588888888899 ] } },
{ "type": "Feature", "properties": { "Name": "Lunds universitet", "description": "<br>Source: Wikipedia article <a href=\"https:\/\/sv.wikipedia.org\/wiki\/Lunds_universitet\">Lunds universitet<\/a>" }, "geometry": { "type": "Point", "coordinates": [ 13.1933333333333, 55.705555555555598 ] } },
{ "type": "Feature", "properties": { "Name": "Militärhögskolan Halmstad", "description": "<br>Source: Wikipedia article <a href=\"https:\/\/sv.wikipedia.org\/wiki\/Militärhögskolan_Halmstad\">Militärhögskolan Halmstad<\/a>" }, "geometry": { "type": "Point", "coordinates": [ 12.840666666666699, 56.687375 ] } },
{ "type": "Feature", "properties": { "Name": "Militärhögskolan Karlberg", "description": "<br>Source: Wikipedia article <a href=\"https:\/\/sv.wikipedia.org\/wiki\/Militärhögskolan_Karlberg\">Militärhögskolan Karlberg<\/a>" }, "geometry": { "type": "Point", "coordinates": [ 18.0197222222222, 59.340555555555603 ] } },
{ "type": "Feature", "properties": { "Name": "Militärhögskolan Östersund", "description": "<br>Source: Wikipedia article <a href=\"https:\/\/sv.wikipedia.org\/wiki\/Militärhögskolan_Östersund\">Militärhögskolan Östersund<\/a>" }, "geometry": { "type": "Point", "coordinates": [ 14.6596166666667, 63.176716666666699 ] } },
{ "type": "Feature", "properties": { "Name": "Newmaninstitutet", "description": "<br>Source: Wikipedia article <a href=\"https:\/\/sv.wikipedia.org\/wiki\/Newmaninstitutet\">Newmaninstitutet<\/a>" }, "geometry": { "type": "Point", "coordinates": [ 17.6378138888889, 59.856069444444401 ] } },
{ "type": "Feature", "properties": { "Name": "Röda Korsets högskola", "description": "<br>Source: Wikipedia article <a href=\"https:\/\/sv.wikipedia.org\/wiki\/Röda_Korsets_högskola\">Röda Korsets högskola<\/a>" }, "geometry": { "type": "Point", "coordinates": [ 18.0705555555556, 59.349444444444401 ] } },
{ "type": "Feature", "properties": { "Name": "Sophiahemmet Högskola", "description": "<br>Source: Wikipedia article <a href=\"https:\/\/sv.wikipedia.org\/wiki\/Sophiahemmet_Högskola\">Sophiahemmet Högskola<\/a>" }, "geometry": { "type": "Point", "coordinates": [ 18.076944444444401, 59.346111111111099 ] } },
{ "type": "Feature", "properties": { "Name": "Stockholms Musikpedagogiska Institut", "description": "<br>Source: Wikipedia article <a href=\"https:\/\/sv.wikipedia.org\/wiki\/Stockholms_Musikpedagogiska_Institut\">Stockholms Musikpedagogiska Institut<\/a>" }, "geometry": { "type": "Point", "coordinates": [ 18.069058333333299, 59.339980555555599 ] } },
{ "type": "Feature", "properties": { "Name": "Uppsala universitet", "description": "<br>Source: Wikipedia article <a href=\"https:\/\/sv.wikipedia.org\/wiki\/Uppsala_universitet\">Uppsala universitet<\/a>" }, "geometry": { "type": "Point", "coordinates": [ 17.628888888888898, 59.8575 ] } },
{ "type": "Feature", "properties": { "Name": "World Maritime University", "description": "<br>Source: Wikipedia article <a href=\"https:\/\/sv.wikipedia.org\/wiki\/World_Maritime_University\">World Maritime University<\/a>" }, "geometry": { "type": "Point", "coordinates": [ 12.981388888888899, 55.605833333333301 ] } }
]
}
